stop_id,stop_code,stop_name,stop_lat,stop_lon,wheelchair_boarding
4-671,671,Quantin,47.340904,5.056952,0
4-672,672,Joffre,47.340122,5.053125,1
4-675,675,Giraud,47.335857,5.051545,0
4-676,676,Alsace,47.333969,5.052984,0
4-677,677,Reims,47.332535,5.051151,0
4-103,103,Giono,47.352161,5.048652,1
4-235,235,Bossuet,47.32148,5.036638,1
4-272,272,Bossuet,47.32069,5.036942,1
4-236,236,Zola,47.319408,5.033224,1
4-271,271,Zola,47.319241,5.034989,1
4-653,653,Rolin,47.316151,5.026628,1
4-603,603,Diebolt,47.313797,5.017244,1
4-604,604,Bourroches Eiffel,47.313286,5.012812,0
4-654,654,Patte d'Oie,47.311829,5.003819,0
4-608,608,Dadolle,47.307686,4.999219,0
4-622,622,Favier,47.305626,4.993691,0
4-623,623,Bordet,47.306187,4.995572,0
4-1047,1047,La Garande,47.243065,5.112528,1
4-655,655,Noblemaire,47.311146,4.999947,0
4-656,656,Echaillons,47.311226,4.997556,0
4-657,657,Delestraint,47.31163,4.994863,0
4-1048,1048,Silo,47.240761,5.104346,0
4-659,659,Cent Ecus,47.310226,4.996434,0
4-637,637,Clos Chauveau,47.314537,5.001122,0
4-638,638,Lycée Marcs d'Or,47.315525,4.997757,0
4-639,639,Paupion,47.31638,4.995378,0
4-640,640,CFA-BTP,47.317009,4.991081,0
4-97,97,Collège Champollion,47.332035,5.074255,0
4-127,127,Longvic Mairie,47.284592,5.062857,1
4-128,128,Blés d'Or,47.285843,5.066678,0
4-1130,1130,St-Antoine,47.274853,5.120949,0
4-132,132,Pommerets,47.294765,5.055451,1
4-133,133,Tamaris,47.296574,5.054035,1
4-134,134,Bourillot,47.299057,5.052481,1
4-137,137,Chancenotte,47.305977,5.046785,0
4-138,138,Piscine Carrousel,47.307953,5.046528,1
4-139,139,Le Nôtre,47.310364,5.045499,1
4-140,140,Princes de Condé,47.313538,5.044164,1
4-1677,1677,Jean-Jacques Rousseau,47.32478,5.044866,1
4-142,142,Bibliothèque,47.319172,5.043338,1
4-289,289,Zipfel,47.302315,5.066672,0
4-1195,1195,Bouhey,47.291656,5.058309,1
4-292,292,Le Jolivet,47.306229,5.059501,1
4-294,294,Guibaudet,47.310452,5.053708,0
4-295,295,Prison,47.312302,5.051473,0
4-296,296,De Musset,47.314327,5.048042,1
4-407,407,Ravel,47.301548,5.039918,1
4-409,409,Attiret,47.303928,5.040912,1
4-684,684,Stéarinerie,47.30479,5.034458,0
4-411,411,Blanchisseries,47.307743,5.037466,1
4-412,412,INSPE,47.310543,5.038626,1
4-413,413,Bordot,47.31237,5.039804,1
4-414,414,Dumont,47.314472,5.041551,1
4-829,829,Parc des Sports,47.3223,5.066078,1
4-391,391,Doumer,47.321918,5.061294,0
4-392,392,Strasbourg,47.321545,5.057674,1
4-393,393,SNCF Porte Neuve,47.321632,5.053946,1
4-1288,1288,Dupuis,47.3265,5.038705,1
4-212,212,Théâtre,47.321445,5.043466,1
4-78,78,Square Darcy,47.324074,5.033513,1
4-28,28,Spuller,47.32626,5.030088,1
4-29,29,Génois,47.32933,5.025027,1
4-30,30,Ziem,47.330894,5.022366,1
4-721,721,Petit Bernard,47.307114,5.034007,0
4-489,489,Place des Savoirs,47.331406,5.067364,1
4-488,488,Seguin,47.332695,5.068463,1
4-490,490,Ste-Bernadette,47.331158,5.065313,1
4-863,863,D'Alembert,47.331036,5.064009,0
4-1223,1223,De Brosses,47.324203,5.036815,1
4-493,493,Palais des Congrès,47.328587,5.052923,0
4-244,244,Mairey,47.300739,5.01704,1
4-245,245,Gambetta,47.298176,5.013881,0
4-246,246,Bazin,47.295635,5.011651,0
4-249,249,Foussets,47.288506,5.005857,0
4-250,250,Curie,47.286419,5.003861,1
4-251,251,Bicentenaire,47.285309,5.005949,1
4-253,253,Langevin,47.283604,5.009686,0
4-1349,1349,Richet,47.306396,5.015709,1
4-663,663,Roussottes,47.312317,5.006821,0
4-502,502,Croix des Valendons,47.300259,5.007515,1
4-503,503,Renan,47.298046,5.005156,1
4-504,504,Collège Chapitre,47.296066,5.003919,1
4-380,380,Bouteiller,47.326283,5.068982,1
4-476,476,Champ Prieur,47.330688,5.092654,0
4-475,475,Bons Compagnons,47.331604,5.091245,1
4-373,373,Paquier d'Aupré,47.33189,5.08791,1
4-478,478,Jacquat,47.331413,5.084536,1
4-479,479,Gauthier,47.330891,5.081172,1
4-385,385,Longènes,47.330212,5.076835,1
4-386,386,Castelnau,47.329628,5.073297,0
4-145,145,SNCF Brifaut,47.324409,5.027626,0
4-146,146,Bagatelle,47.323341,5.021999,0
4-149,149,Marmuzots,47.328159,5.012617,0
4-150,150,Fontaine aux Fées,47.329491,5.010672,1
4-151,151,Libération,47.332695,5.010276,1
4-780,780,Cottages,47.333187,5.008844,0
4-153,153,Côte aux Moines,47.337788,5.009193,0
4-154,154,Arbalétriers,47.338135,5.00357,0
4-155,155,Logis de Bourgogne,47.339008,4.998397,0
4-558,558,d'Arbaumont,47.31345,5.055144,0
4-557,557,Petites Roches,47.313339,5.057548,0
4-824,824,CREPS,47.311756,5.080746,0
4-1060,1060,Gendarmerie,47.317047,5.121797,0
4-1061,1061,Croix St-Martin,47.314793,5.120886,0
4-61,61,Quetignerot,47.309883,5.107542,0
4-13,13,Atria,47.308437,5.110034,1
4-1062,1062,Quetigny Mairie,47.312317,5.115622,0
4-1369,1369,IUT,47.309727,5.069155,0
4-1174,1174,Léchenet,47.331459,5.077376,0
4-203,203,Piscine Olympique,47.314442,5.082088,0
4-1370,1370,21ème Siècle,47.309341,5.071755,0
4-17,17,Boulanger,47.317173,5.064466,0
4-18,18,Défense,47.317299,5.062196,0
4-19,19,Creux d'Enfer,47.31776,5.057852,0
4-21,21,Lycée H. Fontaine,47.318935,5.051466,0
4-22,22,Cité Dampierre,47.319633,5.046683,0
4-83,83,Cité Dampierre,47.319408,5.045904,0
4-160,160,Lavoisier,47.284042,5.043702,0
4-510,510,Palissy,47.285526,5.019875,0
4-481,481,Les Jardins,47.33519,5.075171,0
4-480,480,Les Buttes,47.337315,5.079729,0
4-370,370,La Planchotte,47.336655,5.084024,0
4-1294,1294,Néel,47.291443,5.045916,0
4-396,396,SNCF Vincenot,47.322487,5.026284,0
4-397,397,Albert 1er,47.322475,5.019427,0
4-398,398,CH La Chartreuse,47.322105,5.010924,0
4-399,399,Gorgets,47.320564,5.008742,0
4-402,402,Bachelard,47.318825,5.001389,0
4-338,338,Jura,47.341995,5.027214,0
4-331,331,Ranelagh,47.341724,5.029213,0
4-415,415,Hoin,47.333771,5.034121,0
4-741,741,Beaune,47.331203,5.03844,0
4-306,306,Mare,47.343964,5.016891,0
4-795,795,Combottes,47.339825,5.017227,0
4-302,302,Amandiers,47.337601,5.023166,0
4-298,298,Rouen,47.331032,5.033096,0
4-34,34,Chaumière,47.33696,5.011959,0
4-35,35,Herriot,47.337906,5.010325,0
4-37,37,Moulissards,47.342793,4.99901,0
4-38,38,Nachey,47.340691,4.996892,0
4-40,40,Picasso,47.337234,4.993754,0
4-42,42,Rétisseys,47.338593,4.991055,0
4-199,199,Eiffel,47.281094,5.050074,0
4-309,309,Route de Beaune,47.287605,5.01363,0
4-506,506,Vieux Bourg,47.291504,5.003454,0
4-580,580,Malines,47.348621,5.074337,0
4-573,573,Quignard,47.349701,5.069028,0
4-1018,1018,La Flamme,47.345554,4.964492,0
4-1017,1017,Courtois,47.344006,4.96525,0
4-547,547,Mayence,47.339149,5.064225,0
4-1015,1015,Victor Hugo,47.340687,4.970383,0
4-1014,1014,Plombières Mairie,47.339863,4.972911,0
4-1013,1013,Vallon,47.338875,4.975656,0
4-1012,1012,Combe aux Fées,47.337334,4.979671,0
4-1009,1009,Seize Vannes,47.332172,4.990087,0
4-1008,1008,Parc à Bateaux,47.329842,4.998231,0
4-1006,1006,CH La Chartreuse,47.322655,5.010938,0
4-1297,1297,Beauregard,47.28083,5.053618,0
4-745,745,Transvaal,47.315342,5.039292,0
4-739,739,Mazières,47.336205,5.039752,0
4-740,740,Houblonnière,47.332966,5.038913,0
4-973,973,Rossignol Eiffel,47.312359,5.010145,0
4-679,679,1er Mai Foyer,47.314899,5.030601,0
4-901,901,Alger,47.311707,5.032783,0
4-744,744,Petit-Cîteaux,47.315193,5.034203,0
4-875,875,Chevreul Piscine,47.306931,5.044147,0
4-876,876,Chancenotte,47.305828,5.047042,0
4-877,877,Collège Lentillères,47.305107,5.052073,0
4-878,878,Péjoces,47.310623,5.060175,0
4-879,879,Mansart,47.313007,5.062851,0
4-881,881,Jeanne d'Arc,47.318249,5.065408,0
4-865,865,CHU - Hôpitaux,47.319016,5.065315,0
4-862,862,Laplace,47.332462,5.063036,0
4-971,971,Saint Exupéry,47.336864,5.055012,0
4-970,970,Junot,47.339527,5.045534,0
4-158,158,Pierrat,47.28265,5.046304,0
4-730,730,Presles,47.356003,5.034503,0
4-1432,1432,Guesde,47.285202,5.068642,0
4-1614,1614,Chenôve Centre,47.294254,5.005972,0
4-429,429,Rue du Port,47.286057,5.041185,0
4-430,430,Romelet,47.286972,5.040054,0
4-432,432,Bertin,47.293678,5.037813,1
4-1323,1323,L'Ogive,47.294132,5.127311,0
4-1265,1265,Volnay,47.311455,5.014891,0
4-969,969,Terrillon,47.336418,5.032534,0
4-968,968,Suisse,47.334854,5.024365,0
4-1383,1383,Pasteur,47.295181,5.133399,0
4-1334,1334,Molière,47.302269,5.132526,0
4-1063,1063,Collège Rostand,47.317471,5.107895,0
4-1227,1227,Févret,47.315563,5.040614,0
4-1359,1359,Prés Potets,47.355846,5.026865,0
4-1187,1187,Cromois,47.314789,5.112759,0
4-417,417,St-Martin,47.338066,5.03598,0
4-36,36,La Fillotte,47.34016,5.005538,0
4-424,424,Les Charmes,47.345467,5.024648,0
4-1274,1274,Charton,47.285522,5.020431,0
4-767,767,Grands Clos,47.367718,5.020297,0
4-433,433,La Colombière,47.297813,5.039517,0
4-729,729,Les Plantes,47.364292,5.028337,0
4-43,43,Néruda,47.340504,4.989375,0
4-58,58,Visitation,47.304394,5.119828,0
4-291,291,Stade Poussots,47.304962,5.06166,0
4-307,307,Cottin,47.346378,5.013662,0
4-305,305,Confrérie,47.343197,5.018959,0
4-1010,1010,Chérains,47.334381,4.987191,0
4-817,817,Grande Légie,47.289513,5.109092,0
4-535,535,Dallas CRI,47.335987,5.061985,0
4-59,59,Lycée de Serres,47.307938,5.116241,0
4-57,57,Bois du Roy,47.303471,5.121897,0
4-47,47,Clématites,47.29998,5.134894,0
4-1052,1052,Capucines,47.302235,5.139908,0
4-893,893,Perret,47.301876,5.142774,0
4-892,892,Géraniums,47.298939,5.143678,0
4-891,891,Artisans,47.29311,5.146124,0
4-49,49,J. Moulin,47.292152,5.134775,0
4-821,821,Bassin,47.298199,5.103138,0
4-848,848,Dorain,47.292961,5.106003,0
4-847,847,Normand,47.291618,5.110299,0
4-816,816,Le Fort,47.288158,5.10586,0
4-815,815,Mimosas,47.290031,5.102808,0
4-1053,1053,Avenue de Tavaux,47.287743,5.133936,0
4-846,846,Montots,47.281403,5.106476,0
4-1054,1054,Excellence 2000,47.283379,5.133192,0
4-810,810,Racine,47.277931,5.111176,0
4-811,811,Corneille,47.278297,5.113166,0
4-1313,1313,Changey,47.354401,4.993257,0
4-799,799,Rue de Dijon,47.349972,5.0015,0
4-800,800,Bernard,47.351196,4.999508,0
4-1121,1121,Hauteville Mairie,47.364094,4.993687,0
4-858,858,Nation,47.347198,5.044215,0
4-732,732,Coteaux du Suzon,47.350697,5.039717,0
4-731,731,Touzet du Vigier,47.352798,5.037572,0
4-669,669,La Vapeur,47.345455,5.059091,0
4-1138,1138,Bressey ZA,47.308044,5.169645,0
4-974,974,Tire Pesseau,47.315777,5.005869,0
4-1191,1191,Allende,47.321312,5.106532,0
4-1190,1190,Prévert,47.320621,5.109038,0
4-1189,1189,Camus,47.319077,5.109646,0
4-783,783,Cortots,47.353821,5.026141,0
4-426,426,Ratel,47.349628,5.028367,0
4-427,427,Belfontaine,47.352139,5.030321,0
4-1123,1123,Les Collines,47.367668,4.990923,0
4-822,822,Site funéraire Dijonmétropole,47.305206,5.092716,0
4-1311,1311,Alisiers,47.347057,5.00142,0
4-665,665,Churchill,47.353004,5.05341,0
4-666,666,Granville,47.350014,5.051907,0
4-667,667,Marcel Proust,47.348869,5.055848,0
4-463,463,Petit Ouges,47.254292,5.086114,0
4-464,464,De Gaulle,47.257435,5.08264,0
4-465,465,Ouges Mairie,47.262527,5.07514,0
4-466,466,Tilleul,47.26355,5.070736,0
4-1037,1037,Ecluse,47.279087,5.062643,0
4-1044,1044,Terminal,47.277992,5.069808,0
4-1140,1140,La Pringolle,47.232658,5.061679,0
4-1142,1142,Colleys,47.25732,5.04752,0
4-1034,1034,Perrigny Mairie,47.265778,5.006706,0
4-1033,1033,Tourelle,47.26704,5.005394,0
4-1032,1032,Terreau du Moulin,47.269733,5.00775,0
4-1031,1031,Lapostolet,47.273289,5.009634,0
4-1030,1030,Vignery,47.272686,5.006113,0
4-1029,1029,CAT -  ESAT,47.274097,5.006156,0
4-1028,1028,Cap-Sud,47.278282,5.008984,0
4-962,962,Dardelain,47.278503,5.009881,0
4-1251,1251,Colombier,47.269653,4.990847,0
4-1250,1250,Méchalot,47.271873,4.991354,0
4-1249,1249,St-Vincent,47.27515,4.994492,0
4-923,923,Limburgerhof,47.291977,5.015317,0
4-922,922,Ferry,47.295017,5.017414,0
4-925,925,Collège Aymé,47.280235,5.003077,0
4-926,926,Rameau,47.278484,5.000185,0
4-378,378,Opaline,47.33308,5.090553,0
4-377,377,Marie de Bourgogne,47.33427,5.088867,0
4-1081,1081,Préfecture,47.324276,5.04218,0
4-1082,1082,Notre Dame,47.322853,5.041089,0
4-1084,1084,Darcy,47.322945,5.034845,0
4-1085,1085,St-Bénigne,47.321728,5.033725,0
4-1091,1091,Tivoli,47.31675,5.036915,0
4-1092,1092,Dumay,47.318668,5.038322,0
4-1093,1093,Cordeliers,47.318844,5.040078,0
4-1208,1208,Brossolette,47.342079,4.990897,0
4-1205,1205,Milsand,47.308243,5.040349,0
4-1224,1224,Suquet,47.316036,5.033861,0
4-1270,1270,Sembat,47.297634,5.021727,0
4-1278,1278,Claudel,47.306629,4.997473,0
4-1279,1279,Divio,47.304138,4.998156,0
4-1298,1298,Verriers,47.300777,5.03632,0
4-1295,1295,Ateliers APF,47.290028,5.048768,0
4-1312,1312,Daix Mairie,47.352409,4.997701,0
4-1397,1397,Chambertin,47.366966,4.998692,0
4-1396,1396,La Paisse,47.368465,4.987956,0
4-1332,1332,Champs Creux,47.300652,5.122796,0
4-1402,1402,York,47.33099,5.059042,0
4-1389,1389,Pompon,47.333427,5.023353,0
4-1641,1641,Quetigny C. Cial,47.311481,5.103548,0
4-1656,1656,Tirbaude,47.328854,5.08921,0
4-15009,15009,Pièce Léger,47.277447,5.015462,0
4-1634,1634,La Combe,47.276241,5.118945,0
4-1633,1633,Neuilly Liberté,47.280014,5.107316,0
4-1678,1678,Beaux Arts,47.322258,5.042223,0
4-1679,1679,Cordeliers,47.318939,5.040996,0
4-1680,1680,Roussin,47.319851,5.038951,0
4-1681,1681,Bossuet,47.320805,5.037424,0
4-1713,1713,Fauconnet,47.338043,5.039633,0
4-10037,10037,Rente Neuve,47.276043,4.928332,0
4-10004,10004,A. Patte,47.278023,4.919091,0
4-10005,10005,Les Pins,47.294628,4.937171,0
4-10006,10006,Corcelles les Monts,47.295341,4.940222,0
4-10007,10007,Combe à la Serpent,47.301594,4.961087,0
4-10026,10026,St-Vincent de Paul,47.303318,4.990361,0
4-10042,10042,Bourvil,47.291016,5.130033,0
4-10043,10043,Trianon,47.288322,5.127894,0
4-10056,10056,Vaillant,47.329964,5.04452,0
4-10057,10057,Piot,47.306351,5.055048,0
4-695,695,Quantin,47.340832,5.057319,0
4-694,694,Joffre,47.340149,5.053471,0
4-691,691,Giraud,47.336224,5.051577,0
4-690,690,Alsace,47.334866,5.053162,0
4-689,689,Reims,47.333172,5.051991,0
4-104,104,Giono,47.352169,5.048678,0
4-633,633,Faubourg Raines,47.317432,5.026533,0
4-650,650,Rolin,47.315712,5.027757,0
4-630,630,Diebolt,47.31395,5.019079,0
4-629,629,Bourroches Eiffel,47.313282,5.01305,0
4-619,619,IME Montagne Ste-Anne,47.30162,4.990952,0
4-192,192,Valentin,47.288376,5.060391,0
4-661,661,Patte d'Oie,47.311794,5.003791,0
4-625,625,Dadolle,47.307659,4.999681,0
4-621,621,Sembel,47.304401,4.991063,0
4-1050,1050,La Garande,47.243221,5.112391,0
4-660,660,Noblemaire,47.311203,5.000506,0
4-1049,1049,Silo,47.241047,5.104704,0
4-10008,10008,Cent Ecus,47.310078,4.996215,0
4-647,647,Clos Chauveau,47.314606,5.000861,0
4-646,646,Lycée Marcs d'Or,47.315422,4.997858,0
4-645,645,Paupion,47.316231,4.995621,0
4-644,644,CFA-BTP,47.316887,4.991723,0
4-643,643,Saulx Tavannes,47.316982,4.989161,0
4-1405,1405,Duhamel,47.283974,5.056609,0
4-195,195,Longvic Mairie,47.284508,5.062985,0
4-10031,10031,Blés d'Or,47.285854,5.066612,0
4-10032,10032,Longvic centre,47.287102,5.062879,0
4-10033,10033,Pommerets,47.294155,5.055817,0
4-190,190,Tamaris,47.296463,5.054069,0
4-189,189,Bourillot,47.29821,5.052874,0
4-186,186,Chancenotte,47.305515,5.04737,0
4-185,185,Piscine Carrousel,47.307613,5.04655,0
4-184,184,Le Nôtre,47.310204,5.045411,0
4-183,183,Princes de Condé,47.313095,5.044221,0
4-181,181,Bibliothèque,47.319099,5.043334,0
4-329,329,Zipfel,47.30196,5.066337,0
4-1196,1196,Bouhey,47.291317,5.058636,0
4-327,327,Le Jolivet,47.306351,5.059216,0
4-325,325,Guibaudet,47.310482,5.053524,0
4-324,324,Prison,47.312298,5.051327,0
4-323,323,De Musset,47.314137,5.048496,0
4-453,453,Ravel,47.301395,5.039884,0
4-451,451,Attiret,47.303974,5.040901,0
4-681,681,Stéarinerie,47.304138,5.034597,0
4-447,447,INSPE,47.310215,5.038411,0
4-446,446,Bordot,47.312954,5.040151,0
4-1217,1217,Dumont,47.314091,5.041214,0
4-831,831,Parc des Sports,47.322273,5.065772,0
4-361,361,Doumer,47.321873,5.061344,0
4-360,360,Strasbourg,47.321449,5.058278,0
4-359,359,SNCF Porte Neuve,47.321552,5.055106,0
4-1373,1373,Dupuis,47.32629,5.038033,0
4-77,77,Spuller,47.326035,5.030434,0
4-76,76,Génois,47.329323,5.024947,0
4-75,75,Ziem,47.330811,5.022467,0
4-725,725,Petit Bernard,47.30706,5.034017,0
4-532,532,Place des Savoirs,47.33123,5.067647,0
4-533,533,Seguin,47.333035,5.068189,0
4-531,531,St-Bernadette,47.331367,5.065641,0
4-905,905,D'Alembert,47.331329,5.063746,0
4-1229,1229,De Brosses,47.32412,5.03689,0
4-263,263,Mairey,47.300228,5.016564,0
4-262,262,Gambetta,47.298016,5.013794,0
4-261,261,Bazin,47.295616,5.011703,0
4-258,258,Foussets,47.288696,5.006158,0
4-257,257,Curie,47.286243,5.003747,0
4-256,256,Bicentenaire,47.285286,5.005776,0
4-1357,1357,Richet,47.306335,5.015614,0
4-664,664,Roussottes,47.312286,5.006979,0
4-519,519,Croix des Valendons,47.300896,5.007984,0
4-518,518,Renan,47.299198,5.005888,0
4-517,517,Collège Chapitre,47.296364,5.004344,0
4-1439,1439,Bouteiller,47.326542,5.068704,0
4-1071,1071,Champ Prieur,47.330654,5.092639,0
4-1073,1073,Bons Compagnons,47.331539,5.0914,0
4-379,379,Paquier d'Aupré,47.331764,5.087175,0
4-372,372,Jacquat,47.331429,5.085027,0
4-483,483,Gauthier,47.331047,5.082505,0
4-366,366,Castelnau,47.329708,5.074506,0
4-178,178,SNCF Brifaut,47.32439,5.027585,0
4-177,177,Bagatelle,47.323502,5.022894,0
4-176,176,Perrières,47.322964,5.019267,0
4-174,174,Marmuzots,47.328197,5.012526,0
4-173,173,Fontaine aux Fées,47.329483,5.010605,0
4-172,172,Libération,47.33231,5.011382,0
4-781,781,Cottages,47.333199,5.008832,0
4-170,170,Côte aux Moines,47.337734,5.009191,0
4-169,169,Arbalétriers,47.338116,5.003622,0
4-168,168,Logis de Bourgogne,47.338718,4.998502,0
4-560,560,d'Arbaumont,47.313358,5.054782,0
4-561,561,Petites Roches,47.313213,5.057925,0
4-835,835,CREPS,47.311638,5.08074,0
4-1070,1070,Gendarmerie,47.317204,5.121289,0
4-1069,1069,Croix St-Martin,47.315228,5.121478,0
4-98,98,Quetignerot,47.309551,5.107908,0
4-99,99,Atria,47.308289,5.110185,1
4-1068,1068,Quetigny Mairie,47.312298,5.116057,0
4-1366,1366,IUT,47.309906,5.068807,0
4-421,421,Piscine Olympique,47.314297,5.082571,0
4-1365,1365,21ème Siècle,47.30925,5.071393,0
4-89,89,Boulanger,47.317139,5.063975,0
4-88,88,Défense,47.317238,5.060975,0
4-87,87,Creux d'Enfer,47.317486,5.058394,0
4-1603,1603,Lycée H. Fontaine,47.319145,5.051741,0
4-84,84,Lycée H. Fontaine,47.318714,5.050263,0
4-1308,1308,Champs Viaux,47.350761,4.998135,0
4-207,207,Lavoisier,47.283783,5.044046,0
4-512,512,Palissy,47.286602,5.017323,0
4-473,473,Les Jardins,47.335278,5.075758,0
4-474,474,Les Buttes,47.337551,5.080442,0
4-1307,1307,Meix Pillon,47.352379,4.994296,0
4-355,355,SNCF Vincenot,47.322227,5.02737,0
4-353,353,Albert 1er,47.322418,5.019199,0
4-352,352,CH La Chartreuse,47.322197,5.01122,0
4-351,351,Gorgets,47.320286,5.008623,0
4-348,348,Bachelard,47.318645,5.00134,0
4-345,345,Belin,47.321098,4.99957,1
4-438,438,Jura,47.341988,5.027161,0
4-439,439,Ranelagh,47.34174,5.029306,0
4-445,445,Hoin,47.333458,5.033999,0
4-753,753,Beaune,47.331421,5.038464,0
4-312,312,Mare,47.343582,5.015906,0
4-313,313,Les Créots,47.341782,5.014756,0
4-791,791,Combottes,47.339737,5.017169,0
4-316,316,Amandiers,47.337639,5.023075,0
4-320,320,Rouen,47.33065,5.032851,0
4-779,779,Dubois,47.325298,5.03233,0
4-71,71,Chaumière,47.336544,5.012733,0
4-70,70,Herriot,47.337635,5.010748,0
4-68,68,Moulissards,47.342808,4.999566,0
4-67,67,Nachey,47.34166,4.997417,0
4-65,65,Picasso,47.337353,4.994104,0
4-63,63,Rétisseys,47.338554,4.991211,0
4-161,161,Eiffel,47.280888,5.050487,0
4-513,513,Route de Beaune,47.287418,5.014335,0
4-515,515,Vieux Bourg,47.291477,5.003452,0
4-523,523,Carraz,47.300179,5.02065,0
4-586,586,Malines,47.349255,5.072753,0
4-593,593,Quignard,47.349682,5.06912,0
4-993,993,La Flamme,47.345844,4.964427,0
4-994,994,Courtois,47.34407,4.96524,0
4-548,548,Mayence,47.338921,5.063975,0
4-996,996,Victor Hugo,47.340664,4.97062,0
4-997,997,Plombières Mairie,47.339909,4.972847,0
4-998,998,Vallon,47.338795,4.975917,0
4-999,999,Combe aux Fées,47.337524,4.979125,0
4-1002,1002,Seize Vannes,47.331982,4.990488,0
4-1003,1003,Parc à Bateaux,47.32983,4.998363,0
4-1005,1005,CH La Chartreuse,47.322567,5.010841,0
4-1290,1290,Beauregard,47.281265,5.053931,0
4-748,748,Transvaal,47.315395,5.037786,0
4-755,755,Mazières,47.335632,5.03963,0
4-754,754,Houblonnière,47.333179,5.039043,0
4-981,981,Rossignol Eiffel,47.312466,5.010137,0
4-686,686,1er Mai Foyer,47.315056,5.030371,0
4-873,873,Alger,47.31218,5.032912,0
4-749,749,Petit-Cîteaux,47.315128,5.033895,0
4-871,871,Chevreul Piscine,47.307236,5.043382,0
4-870,870,Chancenotte,47.305962,5.046758,0
4-869,869,Collège Lentillères,47.305222,5.052106,0
4-322,322,Baudin,47.315441,5.045888,0
4-868,868,Péjoces,47.309715,5.058977,0
4-867,867,Mansart,47.312809,5.062483,0
4-1212,1212,Jeanne d'Arc,47.31797,5.065341,0
4-903,903,CHU - Hôpitaux,47.319843,5.065331,0
4-906,906,Laplace,47.332714,5.063115,0
4-983,983,St-Exupéry,47.336864,5.055409,0
4-985,985,Junot,47.339554,5.046317,0
4-200,200,Pierrat,47.282116,5.046819,0
4-764,764,Presles,47.355328,5.034879,0
4-1431,1431,Guesde,47.285145,5.068745,0
4-1619,1619,Chenôve Centre,47.294373,5.005621,0
4-458,458,Rue du Port,47.285759,5.041514,0
4-457,457,Romelet,47.287334,5.039583,0
4-455,455,Bertin,47.293461,5.037445,1
4-1330,1330,L'Ogive,47.294296,5.127227,0
4-1266,1266,Volnay,47.311951,5.014492,0
4-987,987,Terrillon,47.336449,5.032337,0
4-988,988,Suisse,47.334633,5.023361,0
4-1386,1386,Pasteur,47.295273,5.133338,0
4-1335,1335,Molière,47.302143,5.132586,0
4-1067,1067,Collège Rostand,47.31749,5.107909,0
4-1344,1344,Prés Potets,47.355724,5.026793,0
4-117,117,Cromois,47.314552,5.112919,0
4-443,443,St-Martin,47.337769,5.035171,0
4-69,69,La Fillotte,47.340313,5.005083,0
4-436,436,Les Charmes,47.345684,5.024301,0
4-1258,1258,Charton,47.283237,5.020395,0
4-454,454,La Colombière,47.297569,5.039942,0
4-765,765,Les Plantes,47.364784,5.028018,0
4-62,62,Néruda,47.340515,4.989296,0
4-101,101,Visitation,47.304405,5.119696,0
4-328,328,Stade Poussots,47.304615,5.062211,0
4-311,311,Cottin,47.346569,5.013619,0
4-1001,1001,Chérains,47.334236,4.987555,0
4-842,842,Grande Légie,47.289482,5.109236,0
4-0,0,Lycée de Serres,47.307827,5.116354,0
4-102,102,Bois du Roy,47.303188,5.123232,0
4-112,112,Clématites,47.299278,5.134923,0
4-1058,1058,Capucines,47.302216,5.140291,0
4-895,895,Perret,47.301762,5.142675,0
4-896,896,Géraniums,47.298958,5.143626,0
4-897,897,Artisans,47.294216,5.145759,0
4-838,838,Bassin,47.297905,5.102898,0
4-852,852,Dorain,47.292843,5.106473,0
4-853,853,Normand,47.291592,5.110258,0
4-843,843,Le Fort,47.28809,5.106081,0
4-844,844,Mimosas,47.290089,5.102679,0
4-1057,1057,Avenue de Tavaux,47.288021,5.133964,0
4-1380,1380,Montots,47.281612,5.106698,0
4-1056,1056,Excellence 2000,47.283382,5.13302,0
4-1379,1379,Racine,47.278049,5.110852,0
4-1378,1378,Corneille,47.278675,5.113225,0
4-1306,1306,Changey,47.354706,4.992597,0
4-788,788,Rue de Dijon,47.349743,5.0017,0
4-787,787,Bernard,47.350853,5.00006,0
4-884,884,Nation,47.347183,5.043645,0
4-762,762,Coteaux du Suzon,47.350777,5.040092,0
4-763,763,Touzet du Vigier,47.352631,5.037842,0
4-697,697,La Vapeur,47.346367,5.059349,0
4-1137,1137,Bressey ZA,47.309174,5.182966,0
4-980,980,Tire Pesseau,47.31601,5.005232,0
4-121,121,Allende,47.320988,5.105761,0
4-120,120,Prévert,47.320538,5.109206,0
4-119,119,Camus,47.319157,5.109703,0
4-782,782,Cortots,47.353794,5.026471,0
4-460,460,Ratel,47.349674,5.028316,0
4-459,459,Belfontaine,47.35215,5.030242,0
4-1119,1119,Place du Puits,47.365864,4.994993,0
4-1118,1118,Les Collines,47.367722,4.990966,0
4-837,837,Site funéraire Dijonmétropole,47.305058,5.09251,0
4-1309,1309,Alisiers,47.34687,5.001411,0
4-701,701,Churchill,47.352695,5.053102,0
4-700,700,Granville,47.350426,5.0521,0
4-699,699,Proust,47.349224,5.054913,0
4-470,470,Petit Ouges,47.254295,5.085956,0
4-469,469,De Gaulle,47.257549,5.082329,0
4-468,468,Ouges Mairie,47.26244,5.075109,0
4-467,467,Tilleul,47.263546,5.070472,0
4-1039,1039,Ecluse,47.278748,5.062572,0
4-1045,1045,Terminal,47.277882,5.069882,0
4-1146,1146,Colleys,47.256737,5.046723,0
4-1020,1020,Perrigny Mairie,47.266117,5.006419,0
4-1021,1021,Tourelle,47.267128,5.005531,0
4-1022,1022,Terreau du Moulin,47.269962,5.00796,0
4-1023,1023,Lapostolet,47.273289,5.009224,0
4-1024,1024,Vignery,47.272774,5.006275,0
4-1026,1026,CAT - ESAT,47.274754,5.006612,0
4-1027,1027,Cap-Sud,47.278351,5.009067,0
4-959,959,Dardelain,47.278465,5.009959,0
4-1252,1252,Colombier,47.26973,4.990745,0
4-1253,1253,Méchalot,47.272423,4.99183,0
4-1254,1254,St-Vincent,47.275204,4.994521,0
4-941,941,Limburgerhof,47.291912,5.01538,0
4-942,942,Ferry,47.295307,5.017641,0
4-939,939,Collège Aymé,47.280457,5.003247,0
4-938,938,Rameau,47.278389,5.000022,0
4-1275,1275,Herbiottes,47.278435,5.016398,0
4-374,374,Opaline,47.333179,5.090545,0
4-375,375,Marie de Bourgogne,47.334023,5.089185,0
4-1685,1685,Préfecture,47.324242,5.042165,0
4-1684,1684,Notre Dame,47.322502,5.041031,0
4-1209,1209,Brossolette,47.342026,4.990854,0
4-1213,1213,Milsand,47.308674,5.038862,0
4-1228,1228,Suquet,47.316086,5.033679,0
4-1262,1262,Sembat,47.297466,5.021956,0
4-1281,1281,Claudel,47.306499,4.997599,0
4-1289,1289,Verriers,47.300121,5.036644,0
4-1293,1293,Ateliers APF,47.289352,5.049951,0
4-1392,1392,Chambertin,47.367123,4.998951,0
4-1394,1394,La Paisse,47.368622,4.987738,0
4-1321,1321,Champs Creux,47.300415,5.12322,0
4-1399,1399,York,47.331284,5.059229,0
4-1388,1388,Pompon,47.333389,5.023497,0
4-1629,1629,Quetigny C. Cial,47.311531,5.10412,0
4-1646,1646,Tirbaude,47.329086,5.088957,0
4-1617,1617,Pièce Léger,47.277527,5.015149,0
4-1620,1620,Monge Cité de la gastronomie,47.317825,5.032032,0
4-1627,1627,Vaillant,47.329998,5.044588,0
4-1635,1635,La Combe,47.276676,5.118399,0
4-1636,1636,Neuilly Liberté,47.279778,5.107489,0
4-1654,1654,Saint-Apollinaire Mairie,47.333721,5.085489,0
4-1649,1649,Saint-Apollinaire Mairie,47.333748,5.085133,0
4-1655,1655,Marie de Bourgogne,47.333912,5.088094,0
4-1683,1683,Beaux Arts,47.322239,5.042328,0
4-1625,1625,Canzio,47.342674,5.000699,0
4-10012,10012,A. Patte,47.278275,4.918694,0
4-10011,10011,Les Pins,47.29459,4.937262,0
4-10010,10010,Corcelles les Monts,47.295341,4.940222,0
4-10009,10009,Combe à la Serpent,47.301506,4.961004,0
4-10038,10038,St-Laurent,47.357502,4.990644,0
4-10044,10044,Bourvil,47.290615,5.129813,0
4-10045,10045,Trianon,47.28804,5.127615,0
4-10058,10058,Piot,47.306538,5.05511,0
4-10064,10064,Docteur Schmitt,47.324162,5.073758,0
4-10065,10065,Hyacinthe Vincent,47.326183,5.073253,0
4-1647,1647,Abbé Pierre,47.330254,5.089017,0
4-752,752,Barbe,47.329014,5.03968,0
4-541,541,Billardon,47.328373,5.069619,1
4-1358,1358,Bourroches Eiffel,47.312843,5.014087,0
4-626,626,Calmette,47.309387,5.001977,0
4-91,91,Carmélites,47.285645,5.07426,0
4-685,685,Lycée le Castel,47.312878,5.036944,0
4-872,872,Collège Le Parc,47.310944,5.033022,0
4-321,321,Cellerier,47.327652,5.033269,0
4-456,456,Ecole des Métiers,47.291649,5.035991,0
4-1255,1255,Cours Fleury,47.327415,5.042259,0
4-334,334,Grands Crus,47.284592,5.008149,0
4-1147,1147,Chevigny Pont Neuf,47.242931,5.056915,0
4-937,937,Champforey,47.27763,4.997458,0
4-952,952,Marsannay,47.279789,5.006493,0
4-113,113,Chevigny Mairie,47.302197,5.137074,0
4-86,86,Champmaillot,47.318302,5.055841,0
4-332,332,Cimetière,47.303013,5.064882,0
4-32,32,Clomiers,47.333496,5.016486,0
4-784,784,Fontaine C. Cial,47.35564,5.030325,0
4-534,534,Lycée Eiffel,47.334526,5.066319,0
4-1145,1145,Domois,47.259644,5.047849,0
4-907,907,Boutaric,47.334686,5.061534,0
4-549,549,Epirey Capnord (descente),47.339821,5.068563,0
4-25,25,Ecoparc Dijon Bourgogne,47.334724,5.10605,0
4-688,688,Marne,47.330647,5.048791,0
4-10046,10046,Champ Chardon,47.283291,5.12824,0
4-866,866,Fac des Sciences,47.314995,5.064064,0
4-437,437,Félizots,47.342796,5.023745,0
4-435,435,Monnet,47.346939,5.026337,0
4-836,836,De Coubertin,47.309288,5.083054,0
4-317,317,Houdart,47.336025,5.025086,0
4-118,118,Ronde,47.317314,5.109237,0
4-197,197,Cap Vert,47.313412,5.094741,0
4-1004,1004,Le Lac,47.325466,5.007637,0
4-196,196,Bief du Moulin,47.284256,5.061015,0
4-110,110,Lescure,47.337021,5.109002,0
4-995,995,Lycée Kir,47.341488,4.967165,0
4-1314,1314,Longvic Z.I.,47.275421,5.062033,0
4-562,562,Mansart,47.312328,5.063041,0
4-1127,1127,Marronniers,47.282265,5.10652,0
4-832,832,Urgences CHU,47.322315,5.069269,0
4-94,94,Mont Blanc,47.299046,5.077368,0
4-171,171,Fassoles,47.334949,5.009356,0
4-1331,1331,Chevigny,47.297413,5.125604,0
4-74,74,St-Mesmin,47.332352,5.01852,0
4-1310,1310,Maladière,47.34457,5.000753,0
4-1653,1653,Moirey,47.333668,5.08358,0
4-845,845,Pré aux Moines,47.290035,5.099713,0
4-187,187,Parc,47.302307,5.048676,0
4-530,530,Grésilles Trimolet,47.329247,5.065017,0
4-109,109,Pré Rondot,47.338581,5.105918,0
4-450,450,Morel Retz,47.305202,5.039957,0
4-698,698,Roosevelt,47.348431,5.057282,0
4-628,628,Rossignol Eiffel,47.312801,5.010379,0
4-326,326,Salengro,47.30825,5.057288,0
4-851,851,Sennecey Mairie,47.291534,5.102053,0
4-696,696,Via Romana,47.342854,5.058309,0
4-632,632,Ste-Chantal,47.31559,5.024032,0
4-175,175,St-François,47.325218,5.014905,0
4-314,314,St-Luc,47.340897,5.017559,0
4-66,66,Jouvet,47.338909,4.996883,0
4-180,180,Théâtre,47.320923,5.043201,0
4-1078,1078,Toison d'Or,47.354649,5.051652,0
4-472,472,Vigne aux Chiens,47.333275,5.075562,0
4-1000,1000,Vaux Bruns,47.335732,4.983617,0
4-524,524,Z.I. Beauregard,47.278973,5.054913,0
4-521,521,22 Janvier,47.276405,5.058459,0
4-522,522,Longvic Z.I.,47.275043,5.060532,0
4-525,525,Oscara,47.272636,5.048018,0
4-526,526,Fortin,47.272858,5.050859,0
4-527,527,Henry Darcy,47.270332,5.05528,0
4-529,529,Via Agrippa,47.270149,5.04813,0
4-536,536,Freycinet,47.268456,5.046682,0
4-537,537,Hôtel Freycinet,47.271072,5.044831,0
4-1241,1241,Bourroches Eiffel,47.314301,5.014067,0
4-1238,1238,Bel Air,47.313221,5.003161,0
4-606,606,Patte d'Oie,47.311127,5.004208,0
4-1239,1239,Saulx Tavannes,47.316975,4.989028,0
4-1043,1043,Longvic Centre,47.286942,5.063982,0
4-1097,1097,Prison,47.313023,5.051483,0
4-1210,1210,Chèvre Morte,47.331661,5.0145,0
4-1604,1604,Lycée Carnot,47.323673,5.049483,0
4-1615,1615,Thibaut,47.293686,5.008722,0
4-953,953,Langevin,47.284779,5.010658,0
4-807,807,Fyot,47.310055,5.015945,0
4-367,367,Longènes,47.33025,5.077446,0
4-1243,1243,Leclerc,47.3311,5.011917,0
4-1226,1226,Champeaux,47.301395,5.063595,0
4-1064,1064,Château,47.314327,5.105786,0
4-93,93,Lycée H. Fontaine,47.317726,5.051285,0
4-1664,1664,La Gentiane,47.278648,5.115433,0
4-1652,1652,La Planchotte,47.336517,5.083726,0
4-1237,1237,Gorgets,47.320183,5.009583,0
4-1346,1346,Glycines,47.339035,5.020987,0
4-10047,10047,Bizet,47.332073,5.027045,0
4-785,785,Dubois,47.325188,5.032444,0
4-1170,1170,Canzio,47.342941,5.000473,0
4-10017,10017,Carraz,47.300304,5.021,0
4-1326,1326,Menuisiers,47.290874,5.149155,0
4-1368,1368,AgroSup,47.310993,5.066163,0
4-1435,1435,Gare SNCF,47.322613,5.031361,0
4-1347,1347,Terrillon,47.337223,5.03231,0
4-1404,1404,Le Suzon,47.346764,5.035108,0
4-80,80,Lycée de Serres,47.308331,5.116314,0
4-1324,1324,Kennedy,47.292953,5.130253,0
4-1325,1325,J. Moulin,47.291477,5.134767,0
4-1395,1395,Hauteville Mairie,47.364384,4.992774,0
4-1393,1393,Place du Puits,47.365864,4.995046,0
4-10039,10039,St-Laurent,47.357197,4.990694,0
4-10066,10066,Docteur Schmitt,47.324112,5.073637,0
4-10067,10067,Hyacinthe Vincent,47.326309,5.073167,0
4-1350,1350,Abbé Chanlon,47.304878,5.01251,0
4-365,365,Billardon,47.328876,5.068903,0
4-955,955,MARSANNAY,47.280182,5.006566,0
4-1384,1384,Chevigny Mairie,47.301342,5.13519,0
4-10059,10059,Clomiers,47.334099,5.016119,0
4-10001,10001,Fontaine C. Cial,47.355652,5.03022,0
4-10068,10068,LONGVIC Centre,47.287334,5.063738,0
4-24,24,Champ Chardon,47.283413,5.127625,0
4-95,95,Collège Rameau,47.321915,4.995851,0
4-978,978,Allobroges,47.339386,5.039185,0
4-270,270,Monge Cité de la gastronomie,47.317448,5.031603,0
4-1172,1172,Lycée Boivin,47.302135,5.127623,0
4-1351,1351,L. de Vinci,47.302689,5.010323,0
4-45,45,Lescure,47.337582,5.108899,0
4-1650,1650,Moirey,47.334602,5.083283,0
4-1219,1219,30 Octobre,47.320984,5.052033,0
4-60,60,Pré Rondot,47.338314,5.105388,0
4-723,723,Theuriet,47.33815,5.050509,0
4-855,855,Morel Retz,47.305557,5.039406,0
4-769,769,Salengro,47.308109,5.056421,0
4-10069,10069,Wilson Sisley,47.316563,5.042583,0
4-10074,10074,Bouchet,47.347561,5.078083,0
4-540,540,Oscara,47.272678,5.048205,0
4-538,538,Via Agrippa,47.270077,5.048232,0
4-1240,1240,Bel Air,47.31266,5.004046,0
4-627,627,Patte d'Oie,47.311356,5.004497,0
4-1291,1291,Duhamel,47.284119,5.056907,0
4-1042,1042,Longvic Centre,47.287041,5.063921,0
4-1099,1099,Prison,47.312965,5.051639,0
4-1207,1207,Chèvre Morte,47.330776,5.0139,0
4-1607,1607,Lycée Carnot,47.323517,5.049607,0
4-1618,1618,Thibaut,47.293644,5.009024,0
4-806,806,Fyot,47.309799,5.016144,0
4-1236,1236,Leclerc,47.330624,5.011549,0
4-1225,1225,Champeaux,47.301537,5.063787,0
4-1066,1066,Château,47.314693,5.105898,0
4-1665,1665,La Gentiane,47.278885,5.114943,0
4-1242,1242,Gorgets,47.320206,5.00977,0
4-1360,1360,Glycines,47.339214,5.021076,0
4-10048,10048,Bizet,47.332027,5.027016,0
4-1222,1222,Dubois,47.325054,5.031973,0
4-551,551,Terrillon,47.337303,5.03238,0
4-10018,10018,Carraz,47.300411,5.021099,0
4-1327,1327,Menuisiers,47.29089,5.149249,0
4-1367,1367,AgroSup,47.312096,5.064062,0
4-1442,1442,Gare SNCF Sévigné,47.322563,5.030365,0
4-1329,1329,Kennedy,47.293079,5.129929,0
4-10060,10060,MARSANNAY Portes du Sud,47.278889,5.019343,0
4-1356,1356,Abbé Chanlon,47.304962,5.012739,0
4-10030,10030,Billardon,47.329575,5.069826,0
4-1375,1375,Lycée de Gaulle,47.347095,5.041641,0
4-1385,1385,Chevigny Mairie,47.301353,5.134688,0
4-10061,10061,Clomiers,47.334015,5.016326,0
4-1342,1342,Dallas CRI,47.336586,5.060691,0
4-1586,1586,Marne,47.330341,5.048352,0
4-986,986,Allobroges,47.339325,5.038308,0
4-1339,1339,Chanoine Kir,47.317745,5.003678,0
4-1355,1355,L. de Vinci,47.302544,5.009972,0
4-131,131,Valentin,47.288467,5.060317,0
4-1637,1637,Marronniers,47.28252,5.105965,0
4-1440,1440,Urgences CHU,47.322399,5.069909,0
4-1216,1216,30 Octobre,47.320858,5.05204,0
4-984,984,Theuriet,47.33847,5.050261,0
4-770,770,Salengro,47.308262,5.056429,0
4-10075,10075,Bouchet,47.347332,5.078257,0
4-1218,1218,Blanchisseries,47.307117,5.037341,0
4-1602,1602,Parc des Sports,47.322487,5.065055,0
4-1398,1398,Poincaré,47.329399,5.059345,0
4-1231,1231,Perrières,47.322968,5.019187,0
4-1443,1443,Gare SNCF,47.322521,5.030602,0
4-130,130,Bons Compagnons,47.332386,5.090967,0
4-106,106,Bons Compagnons,47.332432,5.091288,0
4-107,107,Bois Guillaume,47.334705,5.097429,0
4-129,129,Bois Guillaume,47.334476,5.096914,0
4-108,108,Robin,47.336182,5.101305,0
4-156,156,Robin,47.336403,5.101807,0
4-1333,1333,Chevigny Mairie,47.30217,5.136623,0
4-1400,1400,Boutaric,47.335144,5.060432,0
4-1287,1287,Fauconnet,47.338715,5.039402,0
4-1214,1214,Chanoine Kir,47.317131,5.003766,0
4-388,388,Grésilles Trimolet,47.329193,5.065001,0
4-1372,1372,Theuriet,47.337959,5.050923,0
4-357,357,Piscine,47.322491,5.001307,0
4-364,364,Piscine,47.322628,5.001182,0
4-387,387,Champs Perdrix,47.319786,5.0046,0
4-401,401,Champs Perdrix,47.320473,5.003721,0
4-394,394,Avenue du Lac,47.318581,5.005334,0
4-395,395,Avenue du Lac,47.318584,5.005599,0
4-1292,1292,Longvic Centre,47.287178,5.062711,0
4-1601,1601,Montmuzard,47.324738,5.065064,0
4-1608,1608,Parc des Sports,47.322674,5.065144,0
4-1403,1403,Poincaré,47.329304,5.059247,0
4-1675,1675,Auditorium,47.328506,5.052548,0
4-1596,1596,Dubois,47.325115,5.031341,0
4-1363,1363,Le Suzon,47.34684,5.035311,0
4-368,368,Lagny,47.316605,5.034975,0
4-1401,1401,Boutaric,47.33519,5.060355,0
4-1371,1371,Toison d'Or,47.354462,5.052279,0
4-1609,1609,Montmuzard,47.32534,5.065055,0
4-1676,1676,Auditorium,47.328457,5.051963,0
4-1642,1642,Grand Marché,47.312222,5.103454,0
4-1628,1628,Grand Marché,47.312458,5.102963,0
4-10071,10071,Billardon,47.330212,5.070679,1
4-1041,1041,Ecole de Gendarmerie,47.275669,5.072877,0
4-766,766,Ahuy (Arrêt de descente),47.367588,5.023933,1
4-728,728,AHUY,47.367348,5.024676,1
4-477,477,Abbé Pierre,47.330284,5.0889,1
4-1542,1542,Auditorium,47.328571,5.052048,1
4-1562,1562,Auditorium,47.328625,5.052474,1
4-742,742,Barbe,47.329006,5.039666,0
4-516,516,Becquerel,47.288601,5.022715,0
4-405,405,Belin,47.321136,4.999453,1
4-125,125,LONGVIC,47.282272,5.058969,1
4-539,539,Billardon,47.329174,5.070044,1
4-1110,1110,Billardon,47.328419,5.069608,1
4-1457,1457,Bourroches,47.305378,5.023505,1
4-1490,1490,Bourroches,47.305443,5.023429,1
4-1348,1348,Bourroches Eiffel,47.313568,5.01501,1
4-1136,1136,BRESSEY,47.309174,5.182966,0
4-1046,1046,BRETENIERE,47.238396,5.115088,1
4-1543,1543,Grand Marché,47.312374,5.103475,1
4-1563,1563,Grand Marché,47.312416,5.103993,1
4-607,607,Calmette,47.309551,5.001866,1
4-1544,1544,Université,47.311577,5.073087,1
4-1564,1564,Université,47.3116,5.0733,1
4-1364,1364,Université,47.31118,5.073491,1
4-1038,1038,LONGVIC Carmélites,47.285805,5.073581,1
4-680,680,Lycée le Castel,47.31263,5.037567,1
4-733,733,Lycée de Gaulle,47.347111,5.041774,0
4-902,902,Collège Le Parc,47.310162,5.033049,0
4-297,297,Cellerier,47.327801,5.033409,0
4-53,53,Les Ateliers,47.295685,5.025002,0
4-431,431,Ecole des Métiers,47.291729,5.036035,1
4-1248,1248,Cours Fleury,47.327354,5.040986,1
4-252,252,Grands Crus,47.28458,5.008333,1
4-234,234,Grangier,47.322723,5.036965,1
4-1545,1545,Cap Vert,47.313568,5.094272,1
4-1565,1565,Cap Vert,47.313541,5.095396,1
4-163,163,Collège H. Dunant,47.302902,5.015005,0
4-1459,1459,Chenôve Centre,47.294567,5.00649,1
4-1534,1534,Chenôve Centre,47.294586,5.006505,1
4-1141,1141,Chevigny Pont Neuf,47.243359,5.056725,1
4-927,927,Champforey,47.27792,4.998174,0
4-254,254,Marsannay,47.279888,5.006445,1
4-448,448,Chicago,47.299301,5.056317,1
4-977,977,Chanoine Kir,47.317459,5.002816,1
4-20,20,Champmaillot,47.318623,5.054918,1
4-1546,1546,CHU - Hôpitaux,47.320343,5.067421,1
4-1566,1566,CHU - Hôpitaux,47.319885,5.067755,1
4-290,290,Cimetière,47.30373,5.063847,0
4-73,73,Clomiers,47.333527,5.016328,1
4-487,487,Lycée Eiffel,47.334286,5.066704,1
4-1129,1129,NEUILLY-CRIMOLOIS République,47.273975,5.119567,0
4-1462,1462,Darcy,47.323788,5.034252,1
4-1494,1494,Darcy,47.323856,5.034388,1
4-1600,1600,Darcy Sévigné,47.323311,5.032666,1
4-1230,1230,Darcy Devosge,47.324234,5.034407,1
4-1464,1464,Le Mail,47.299774,5.010482,1
4-1496,1496,Le Mail,47.299767,5.010481,1
4-1143,1143,Domois,47.259174,5.048248,0
4-776,776,Square Darcy,47.323849,5.032323,1
4-81,81,Collège Dorgelès,47.294655,5.059785,0
4-1465,1465,Drapeau,47.332893,5.043953,1
4-1497,1497,Drapeau,47.332993,5.043932,1
4-861,861,Boutaric,47.334919,5.061149,1
4-484,484,Epirey Capnord,47.339672,5.067191,1
4-543,543,Europe Découverte,47.355072,5.04468,0
4-544,544,Europe Découverte,47.354958,5.04494,0
4-300,300,Dolet,47.344711,5.062708,0
4-310,310,Chaput,47.344437,5.065144,0
4-315,315,Cluj,47.346043,5.06655,0
4-318,318,Boirac,47.347858,5.065173,0
4-287,287,Perrenet,47.348755,5.062663,0
4-215,215,Flandres,47.355289,5.065261,0
4-205,205,Ardennes,47.352463,5.067223,0
4-330,330,Bailly,47.350037,5.080011,0
4-339,339,Yser,47.342976,5.077927,0
4-10076,10076,Breuchillière,47.345402,5.075045,0
4-10077,10077,Brot,47.344273,5.072895,0
4-10078,10078,Escaut,47.34306,5.073932,0
4-337,337,Redoute,47.340313,5.077049,0
4-1700,1700,Cracovie,47.341431,5.074378,1
4-343,343,Clairvot,47.346741,5.085298,0
4-340,340,Rosey,47.346504,5.081604,0
4-167,167,Dolet,47.345005,5.062815,0
4-166,166,Chaput,47.344444,5.06566,0
4-165,165,Cluj,47.345909,5.066451,0
4-164,164,Boirac,47.347694,5.065165,0
4-191,191,Perrenet,47.348526,5.062797,0
4-194,194,Flandres,47.355518,5.064783,0
4-202,202,Ardennes,47.352234,5.067754,0
4-162,162,Bailly,47.350067,5.080158,0
4-159,159,Yser,47.342754,5.077704,0
4-10079,10079,Breuchillière,47.345444,5.075088,0
4-10080,10080,Brot,47.344257,5.072749,0
4-10081,10081,Escaut,47.342907,5.073925,0
4-157,157,Redoute,47.340454,5.077612,1
4-1708,1708,Cracovie,47.341591,5.0744,0
4-238,238,Pont Churchill,47.351303,5.06262,0
4-193,193,Pont Churchill,47.351524,5.062751,0
4-486,486,Dallas CRI,47.335892,5.062628,1
4-79,79,Domaine d'Epoisses,47.236561,5.098115,0
4-1550,1550,Erasme,47.315311,5.067058,1
4-1569,1569,Erasme,47.314987,5.067492,1
4-1466,1466,Europe - Simone Veil,47.353085,5.046196,1
4-1498,1498,Europe - Simone Veil,47.353142,5.045576,1
4-880,880,Fac. des Sciences,47.3158,5.064661,1
4-423,423,Félizots,47.34325,5.023212,0
4-1139,1139,FÉNAY,47.232635,5.063779,0
4-10003,10003,FLAVIGNEROT,47.278362,4.916357,0
4-1232,1232,Motte Giron,47.315578,4.987145,0
4-356,356,Fontaine d'Ouche,47.323036,4.997919,1
4-1467,1467,Foch Gare,47.323483,5.030279,1
4-1499,1499,Foch Gare,47.323551,5.030455,1
4-308,308,FONTAINE Village,47.348171,5.010879,1
4-1585,1585,DIJON Gare,47.323296,5.028258,1
4-1551,1551,DIJON Gare,47.323349,5.02826,1
4-273,273,Grangier,47.322525,5.038517,1
4-1528,1528,Godrans Les Halles,47.325256,5.038801,1
4-1536,1536,Godrans Les Halles,47.325432,5.039339,1
4-406,406,Parc de la Colombière,47.299191,5.040249,0
4-1555,1555,Grésilles Trimolet,47.328873,5.064415,1
4-1571,1571,Grésilles Trimolet,47.328915,5.064589,1
4-1182,1182,Poste,47.323315,5.036704,1
4-425,425,Monnet,47.346855,5.026479,1
4-449,449,Guignard,47.300301,5.059768,0
4-444,444,Guignard,47.300579,5.060166,0
4-500,500,Gay Lussac,47.290775,5.022083,0
4-1469,1469,Carraz,47.300926,5.021005,1
4-1502,1502,Carraz,47.301018,5.020944,1
4-823,823,De Coubertin,47.309151,5.08359,1
4-237,237,Monge Cité de la gastronomie,47.316761,5.030642,1
4-618,618,Hortensias,47.303196,4.996071,1
4-301,301,Houdart,47.33617,5.025014,1
4-1592,1592,HAUTEVILLE,47.367035,5.002735,1
4-1471,1471,Jaurès,47.310467,5.026394,1
4-1504,1504,Jaurès,47.31081,5.026451,1
4-495,495,Jean Bertin,47.35453,5.040878,0
4-545,545,Jean Bertin,47.354855,5.041265,0
4-56,56,Lycée Boivin,47.302364,5.126696,0
4-1188,1188,Ronde,47.31678,5.109752,0
4-1472,1472,Junot,47.338955,5.044565,1
4-1505,1505,Junot,47.33918,5.04459,1
4-496,496,Justice,47.294498,5.021093,0
4-96,96,Lycée Eiffel,47.334389,5.070681,0
4-10,10,Lycée Eiffel,47.334324,5.070744,0
4-12,12,Cap Vert,47.313469,5.094942,1
4-1007,1007,Le Lac,47.325558,5.007602,0
4-126,126,Bief du Moulin,47.28413,5.061008,1
4-1016,1016,Lycée Kir,47.341515,4.966862,0
4-1315,1315,Longvic Z.I.,47.275349,5.062016,0
4-1132,1132,MAGNY,47.276825,5.174128,0
4-1474,1474,1er Mai,47.314625,5.028748,1
4-1507,1507,1er Mai,47.314762,5.028728,1
4-556,556,Mansart,47.312813,5.061557,1
4-1657,1657,Gare SNCF,47.322205,5.030665,1
4-1599,1599,Marmuzots,47.328125,5.01333,1
4-828,828,Urgences CHU,47.322346,5.069866,1
4-92,92,Mont Blanc,47.299194,5.0776,0
4-1246,1246,MARSANNAY Charon,47.267376,4.989676,1
4-152,152,Fassoles,47.334743,5.009319,1
4-1322,1322,CHEVIGNY,47.297997,5.125317,1
4-31,31,St-Mesmin,47.332428,5.018338,1
4-1556,1556,Mazen Sully,47.314499,5.076652,1
4-1572,1572,Mazen Sully,47.314754,5.076572,1
4-1135,1135,Maladière,47.344482,5.000749,0
4-1530,1530,Monge Cité de la gastronomie,47.31731,5.031371,1
4-1537,1537,Monge Cité de la gastronomie,47.317753,5.031274,1
4-499,499,Montgolfier,47.291569,5.019305,0
4-509,509,Morvan,47.342194,5.038029,0
4-520,520,Morvan,47.342003,5.038152,0
4-658,658,Montagne de Larrey,47.31052,4.994199,0
4-1204,1204,TALANT Citadelle,47.343433,4.993096,1
4-1475,1475,Nation,47.346291,5.045308,1
4-1508,1508,Nation,47.346409,5.045221,1
4-10000,10000,Les Ateliers,47.295582,5.024455,0
4-10051,10051,Dépôt Navette Personnel,47.295479,5.025389,0
4-10052,10052,Dépôt Navette Personnel,47.295479,5.025389,0
4-1580,1580,Piscine Olympique,47.314968,5.08193,1
4-1581,1581,Piscine Olympique,47.314968,5.082301,1
4-10062,10062,Verger Conservatoire,47.259743,5.079083,0
4-10063,10063,Verger Conservatoire,47.260067,5.078676,0
4-814,814,Pré aux Moines,47.290279,5.10007,1
4-136,136,Parc,47.302555,5.048861,0
4-1025,1025,Bolotte,47.271839,5.003888,0
4-1557,1557,Parc des Sports,47.322617,5.065274,1
4-1573,1573,Parc des Sports,47.322399,5.065329,1
4-992,992,PLOMBIERES,47.346588,4.964914,0
4-491,491,Grésilles Trimolet,47.329166,5.065026,1
4-1558,1558,Poincaré,47.328842,5.058522,1
4-1574,1574,Poincaré,47.328884,5.059412,1
4-542,542,Presles,47.354591,5.035583,0
4-1668,1668,DIJON Valmy,47.365627,5.04666,1
4-1509,1509,DIJON Valmy,47.365612,5.047017,1
4-1019,1019,PERRIGNY,47.264305,5.00736,1
4-674,674,Theuriet,47.33802,5.051416,1
4-1645,1645,ST-APOLLINAIRE Pré Thomas,47.327911,5.085349,1
4-1192,1192,QUETIGNY Europe,47.319576,5.10492,1
4-1559,1559,QUETIGNY Centre La Parenthèse,47.313873,5.110091,1
4-1575,1575,QUETIGNY Centre La Parenthèse,47.313889,5.110158,1
4-1059,1059,QUETIGNY  Allées Cavalières,47.317078,5.118636,0
4-1477,1477,République,47.32658,5.044097,1
4-1510,1510,République,47.326706,5.044077,1
4-1560,1560,République,47.326523,5.045815,1
4-1576,1576,République,47.326611,5.045872,1
4-1692,1692,République,47.32618,5.043507,1
4-1605,1605,République,47.326813,5.045326,1
4-1606,1606,République,47.326385,5.045093,1
4-514,514,Rue de Longvic,47.289658,5.008653,0
4-259,259,Rue de Longvic,47.29105,5.008299,0
4-248,248,Rue de Longvic,47.290806,5.008009,0
4-303,303,Rue de Longvic,47.289894,5.008109,0
4-668,668,Roosevelt,47.34808,5.058019,1
4-605,605,Rossignol Eiffel,47.312767,5.010311,1
4-1166,1166,Route de Beaune,47.288181,5.012905,0
4-1165,1165,Route de Beaune,47.287388,5.01223,0
4-293,293,Salengro,47.308456,5.057696,1
4-890,890,CHEVIGNY Z.I.,47.293091,5.150568,0
4-849,849,Sennecey Mairie,47.291519,5.102026,0
4-1441,1441,Darcy,47.324142,5.031742,1
4-670,670,Via Romana,47.342854,5.05823,1
4-1276,1276,Sainte-Anne,47.302643,4.98878,1
4-601,601,Ste-Chantal,47.315136,5.023466,1
4-148,148,St-François,47.325344,5.014859,0
4-304,304,St-Luc,47.34182,5.018505,0
4-23,23,St-Michel,47.321392,5.045475,0
4-44,44,TALANT Dullin,47.340355,4.992718,1
4-39,39,Jouvet,47.338921,4.996778,0
4-511,511,CHENOVE C. Cial,47.283237,5.020395,0
4-82,82,Théâtre,47.321194,5.04393,1
4-1484,1484,Toison d'Or,47.355274,5.052135,1
4-1514,1514,Toison d'Or,47.355476,5.05241,1
4-428,428,Tuilerie,47.23035,5.07204,0
4-410,410,Tulipes,47.317219,5.001521,0
4-10025,10025,Université,47.310524,5.0731,1
4-1531,1531,Giroud,47.364952,5.049381,1
4-1538,1538,Giroud,47.365295,5.049743,1
4-1532,1532,Pôle Santé,47.36121,5.051244,1
4-1539,1539,Pôle Santé,47.361214,5.051059,1
4-1533,1533,Valendons,47.3018,5.015188,1
4-1540,1540,Valendons,47.301834,5.015242,1
4-376,376,ST-APOLLINAIRE Val Sully,47.33662,5.091583,1
4-384,384,Vigne aux Chiens,47.332699,5.076658,0
4-1011,1011,Vaux Bruns,47.335842,4.98345,1
4-141,141,Wilson Carnot,47.316505,5.044248,1
4-746,746,Wilson Dumont,47.315296,5.042017,1
4-336,336,Zénith,47.353878,5.057931,0
4-1487,1487,Zénith,47.356541,5.056477,1
4-1518,1518,Zénith,47.356529,5.056609,1
4-1390,1390,Zénith,47.353897,5.058276,1
